[
  {
    "code": "38201",
    "prefCode": "38",
    "name": "松山市",
    "pop": 511192,
    "taxRevenue": 0,
    "lat": 33.8433,
    "lng": 132.7636
  },
  {
    "code": "38202",
    "prefCode": "38",
    "name": "今治市",
    "pop": 151672,
    "taxRevenue": 0,
    "lat": 34.0689,
    "lng": 132.9905
  },
  {
    "code": "38203",
    "prefCode": "38",
    "name": "宇和島市",
    "pop": 70809,
    "taxRevenue": 0,
    "lat": 33.2174,
    "lng": 132.5493
  },
  {
    "code": "38204",
    "prefCode": "38",
    "name": "八幡浜市",
    "pop": 31987,
    "taxRevenue": 0,
    "lat": 33.4634,
    "lng": 132.4231
  },
  {
    "code": "38205",
    "prefCode": "38",
    "name": "新居浜市",
    "pop": 115938,
    "taxRevenue": 0,
    "lat": 33.9488,
    "lng": 133.2977
  },
  {
    "code": "38206",
    "prefCode": "38",
    "name": "西条市",
    "pop": 104791,
    "taxRevenue": 0,
    "lat": 33.9159,
    "lng": 133.1332
  },
  {
    "code": "38207",
    "prefCode": "38",
    "name": "大洲市",
    "pop": 40575,
    "taxRevenue": 0,
    "lat": 33.5255,
    "lng": 132.5591
  },
  {
    "code": "38210",
    "prefCode": "38",
    "name": "伊予市",
    "pop": 35133,
    "taxRevenue": 0,
    "lat": 33.7402,
    "lng": 132.7063
  },
  {
    "code": "38213",
    "prefCode": "38",
    "name": "四国中央市",
    "pop": 82754,
    "taxRevenue": 0,
    "lat": 33.9815,
    "lng": 133.5381
  },
  {
    "code": "38214",
    "prefCode": "38",
    "name": "西予市",
    "pop": 35388,
    "taxRevenue": 0,
    "lat": 33.3749,
    "lng": 132.5391
  },
  {
    "code": "38215",
    "prefCode": "38",
    "name": "東温市",
    "pop": 33903,
    "taxRevenue": 0,
    "lat": 33.7972,
    "lng": 132.8813
  },
  {
    "code": "38356",
    "prefCode": "38",
    "name": "上島町",
    "pop": 6509,
    "taxRevenue": 0,
    "lat": 34.2601,
    "lng": 133.1851
  },
  {
    "code": "38386",
    "prefCode": "38",
    "name": "久万高原町",
    "pop": 7404,
    "taxRevenue": 0,
    "lat": 33.6459,
    "lng": 132.9351
  },
  {
    "code": "38401",
    "prefCode": "38",
    "name": "松前町",
    "pop": 29630,
    "taxRevenue": 0,
    "lat": 33.7906,
    "lng": 132.7188
  },
  {
    "code": "38402",
    "prefCode": "38",
    "name": "砥部町",
    "pop": 20480,
    "taxRevenue": 0,
    "lat": 33.7555,
    "lng": 132.7891
  },
  {
    "code": "38422",
    "prefCode": "38",
    "name": "内子町",
    "pop": 15322,
    "taxRevenue": 0,
    "lat": 33.5567,
    "lng": 132.683
  },
  {
    "code": "38442",
    "prefCode": "38",
    "name": "伊方町",
    "pop": 8397,
    "taxRevenue": 0,
    "lat": 33.447,
    "lng": 132.2534
  },
  {
    "code": "38484",
    "prefCode": "38",
    "name": "松野町",
    "pop": 3674,
    "taxRevenue": 0,
    "lat": 33.2208,
    "lng": 132.7115
  },
  {
    "code": "38488",
    "prefCode": "38",
    "name": "鬼北町",
    "pop": 9682,
    "taxRevenue": 0,
    "lat": 33.2725,
    "lng": 132.6969
  },
  {
    "code": "38506",
    "prefCode": "38",
    "name": "愛南町",
    "pop": 19601,
    "taxRevenue": 0,
    "lat": 32.9686,
    "lng": 132.5678
  }
]